City_ID,City,Lat,Lng,Max Temp,Humidity,Cloudiness,Wind Speed,Country,Date
0,yellowknife,62.456,-114.3525,11.34,99,100,1.79,CA,1725390715
1,adamstown,-25.066,-130.1015,17.28,54,53,7.64,PN,1725390716
2,port elizabeth,-33.918,25.5701,16.84,82,0,2.57,ZA,1725390717
3,waitangi,-43.9535,-176.5597,12.12,98,100,1.34,NZ,1725390718
4,saint-mandrier-sur-mer,43.078,5.929,26.96,76,0,1.54,FR,1725390719
5,hawaiian paradise park,19.5933,-154.9731,27.72,78,40,0.45,US,1725390720
6,aasiaat,68.7098,-52.8699,3.29,81,100,6.52,GL,1725390721
7,hadibu,12.65,54.0333,25.47,78,50,8.7,YE,1725390722
8,stanley,54.868,-1.6985,14.04,80,20,3.6,GB,1725390723
9,untsukul',42.7115,46.7866,19.72,84,0,0.96,RU,1725390725
10,saida,34.8303,0.1517,29.74,46,0,3.94,DZ,1725390726
11,invercargill,-46.4,168.35,5.01,93,67,1.34,NZ,1725390728
12,west island,-12.1568,96.8225,23.99,94,75,5.14,CC,1725390729
13,edinburgh of the seven seas,-37.0676,-12.3116,9.82,57,98,6.11,SH,1725390730
14,sparta,43.9441,-90.8129,24.08,41,0,1.54,US,1725390731
15,sitka,57.0531,-135.33,13.88,81,100,0.99,US,1725390732
16,gokarna,14.55,74.3167,26.02,84,61,3.08,IN,1725390733
17,praia da vitoria,38.7333,-27.0667,21.59,66,8,5.27,PT,1725390734
18,sinabang,2.4803,96.3801,25.65,86,100,2.02,ID,1725390735
19,blackmans bay,-43.0167,147.3167,7.63,81,100,1.34,AU,1725390737
20,iqaluit,63.7506,-68.5145,8.85,70,75,10.29,CA,1725390738
21,bethel,41.3712,-73.414,22.8,42,0,2.06,US,1725390739
22,aleksandrov gay,50.147,48.5704,22.42,21,100,2.23,RU,1725390740
23,okhotsk,59.3833,143.3,11.19,80,89,3.41,RU,1725390741
24,port mathurin,-19.6833,63.4167,22.17,70,23,10.26,MU,1725390742
25,ushuaia,-54.8,-68.3,4.81,56,40,9.26,AR,1725390743
26,hermanus,-34.4187,19.2345,13.22,84,100,5.19,ZA,1725390744
27,taro,-8.3862,115.28,19.35,100,78,0.38,ID,1725390745
28,port-aux-francais,-49.35,70.2167,3.1,86,7,8.13,TF,1725390746
29,grytviken,-54.2811,-36.5092,1.36,98,100,3.52,GS,1725390747
30,uturoa,-16.7333,-151.4333,25.14,76,76,10.96,PF,1725390749
31,santiago de cao,-7.9589,-79.2392,18.07,82,40,5.14,PE,1725390750
32,papatowai,-46.5619,169.4708,4.2,88,23,3.76,NZ,1725390751
33,isafjordur,66.0755,-23.124,6.02,87,75,2.06,IS,1725390752
34,kapa'a,22.0752,-159.319,28.18,79,75,6.69,US,1725390753
35,wailua homesteads,22.0669,-159.378,27.44,83,75,6.69,US,1725390754
36,saint-philippe,-21.3585,55.7679,21.5,84,32,4.24,RE,1725390755
37,kavaratti,10.5669,72.642,27.34,84,100,7.36,IN,1725390756
38,vorgashor,67.5833,63.95,2.51,83,6,2.01,RU,1725390757
39,tandalti,13.0167,31.8667,28.11,66,98,3.77,SD,1725390758
40,broome,42.2506,-75.833,22.88,43,40,2.68,US,1725390537
41,vorkuta,67.5,64.0,2.73,84,8,2.01,RU,1725390761
42,as sulayyil,20.4607,45.5779,35.24,12,100,3.38,SA,1725390762
43,auki,-8.7676,160.7034,23.93,90,100,2.22,SB,1725390765
44,albany,42.6001,-73.9662,23.46,45,0,0.89,US,1725390766
45,quatre cocos,-20.2078,57.7625,22.27,82,44,5.54,MU,1725390767
46,razole,16.4833,81.8333,24.49,97,100,3.84,IN,1725390768
47,kayangel,8.0823,134.7173,29.23,71,100,1.63,PW,1725390769
48,constantia,44.1833,28.65,22.61,83,2,2.08,RO,1725390770
49,leava,-14.3,-178.1667,25.53,73,95,9.2,WF,1725390772
50,tura,25.5198,90.2201,23.69,96,100,1.3,IN,1725390773
51,ludwin,51.3461,22.9058,23.97,56,0,2.06,PL,1725390774
52,ribeira grande,38.5167,-28.7,24.32,53,20,7.2,PT,1725390775
53,kutum,14.2,24.6667,24.99,63,68,2.01,SD,1725390776
54,puerto natales,-51.7236,-72.4875,5.25,60,20,10.29,CL,1725390777
55,vilyuchinsk,52.9306,158.4028,9.15,78,85,3.39,RU,1725390778
56,bardai,11.65,7.2333,21.56,93,100,2.8,NG,1725390779
57,bousse,12.6606,-1.8922,25.71,80,99,3.72,BF,1725390780
58,new norfolk,-42.7826,147.0587,8.29,98,100,1.58,AU,1725390781
59,hithadhoo,-0.6,73.0833,28.31,77,67,4.01,MV,1725390782
60,karachi,24.9056,67.0822,27.9,78,75,3.09,PK,1725390784
61,yuzhno-kurilsk,44.0306,145.8556,16.8,79,6,1.9,RU,1725390785
62,berdigestyakh,62.0989,126.6992,5.68,84,100,1.86,RU,1725390786
63,saudarkrokur,65.7461,-19.6394,5.67,87,91,1.12,IS,1725390787
64,thompson,55.7435,-97.8558,25.09,57,100,1.54,CA,1725390789
65,fort mcmurray,56.7268,-111.381,14.77,72,100,3.6,CA,1725390765
66,remire-montjoly,4.9167,-52.2667,31.02,70,75,5.66,GF,1725390791
67,talnakh,69.4865,88.3972,6.02,88,100,4.83,RU,1725390792
68,ilulissat,69.2167,-51.1,5.01,65,75,7.72,GL,1725390794
69,jamestown,42.097,-79.2353,22.79,40,0,1.79,US,1725390795
70,acarau,-2.8856,-40.12,27.74,66,100,9.05,BR,1725390796
71,verkhnedneprovskiy,54.9813,33.3457,16.4,64,48,2.7,RU,1725390797
72,la ronge,55.1001,-105.2842,16.14,88,100,3.6,CA,1725390798
73,ust-nera,64.5667,143.2,5.46,99,100,1.76,RU,1725390799
74,lebu,-37.6167,-73.65,10.91,75,78,3.49,CL,1725390800
75,vuktyl,63.8567,57.3094,5.19,88,10,2.3,RU,1725390801
76,bredasdorp,-34.5322,20.0403,12.92,87,100,2.4,ZA,1725390802
77,tangalle,6.024,80.7911,26.34,85,100,4.67,LK,1725390803
78,san patricio,28.017,-97.5169,31.97,86,100,5.24,US,1725390804
79,jabat,7.75,168.9751,28.58,78,100,4.85,MH,1725390806
80,perry,37.2506,-83.1999,28.02,44,97,2.23,US,1725390807
81,qaqortoq,60.7167,-46.0333,5.88,97,100,2.05,GL,1725390808
82,inarajan village,13.2736,144.7484,27.54,93,27,3.57,GU,1725390809
83,utrik,11.2278,169.8474,28.62,77,13,6.59,MH,1725390810
84,touros,-5.1989,-35.4608,26.12,67,100,7.74,BR,1725390811
85,akureyri,65.6835,-18.0878,8.96,71,20,6.69,IS,1725390812
86,longyearbyen,78.2186,15.6401,8.91,81,75,1.03,SJ,1725390813
87,margaret river,-33.95,115.0667,14.03,82,99,8.64,AU,1725390814
88,sinop,41.7711,34.8709,19.02,82,100,0.99,TR,1725390815
89,mhamid,29.82,-5.72,37.71,13,0,3.62,MA,1725390816
90,jinghong,21.991,100.7341,21.23,99,89,0.96,CN,1725390818
91,nahiyat ash shinafiyah,31.5874,44.6602,34.33,20,0,6.1,IQ,1725390819
92,hinton,53.4001,-117.5857,22.76,43,24,0.8,CA,1725390820
93,pacific grove,36.6177,-121.9166,25.23,74,0,2.06,US,1725390679
94,hamilton,39.1834,-84.5333,26.81,38,0,5.14,US,1725390822
95,lompoc,34.6391,-120.4579,27.85,64,0,5.66,US,1725390823
96,berezovyy,51.6667,135.7,14.73,78,100,2.52,RU,1725390824
97,punta arenas,-53.15,-70.9167,6.06,56,20,12.35,CL,1725390825
98,murghob,38.1702,73.9667,7.86,35,2,2.68,TJ,1725390826
99,choyr,46.3611,108.3611,12.41,75,99,5.55,MN,1725390827
100,tomatlan,19.9333,-105.25,32.99,55,100,2.35,MX,1725390828
101,greenville,35.6127,-77.3663,26.01,58,75,7.2,US,1725390831
102,tymovskoye,50.8456,142.655,11.67,89,65,3.28,RU,1725390832
103,banda aceh,5.5577,95.3222,25.87,82,100,4.77,ID,1725390833
104,portland,45.5234,-122.6762,21.45,72,100,1.79,US,1725390120
105,ketchikan,55.3422,-131.6461,16.3,71,92,1.07,US,1725390835
106,college,64.8569,-147.8028,10.09,75,75,0.45,US,1725390836
107,anadyr,64.75,177.4833,7.28,93,40,0.0,RU,1725390822
108,masterton,-40.9597,175.6575,7.67,96,100,2.44,NZ,1725390838
109,coquimbo,-29.9533,-71.3436,16.85,60,0,5.66,CL,1725390840
110,gadzhiyevo,69.2551,33.3362,13.66,75,6,5.39,RU,1725390841
111,chakari,-18.0629,29.8925,18.31,34,2,4.37,ZW,1725390842
112,tiksi,71.6872,128.8694,3.5,89,100,2.04,RU,1725390843
113,puerto ayora,-0.7393,-90.3518,21.42,91,89,2.68,EC,1725390844
114,kavalerovo,44.2661,135.0572,10.84,93,0,1.36,RU,1725390845
115,whitehorse,60.7161,-135.0538,12.83,61,75,0.45,CA,1725390846
116,songjianghe,42.1859,127.479,12.75,88,13,2.26,CN,1725390847
117,miyazaki,31.9111,131.4239,24.97,94,1,2.06,JP,1725390848
118,lapinlahti,65.5833,30.5667,15.13,88,5,3.62,RU,1725390849
119,papao,-17.75,-149.55,23.75,72,30,11.84,PF,1725390850
120,muriti,-1.9833,32.9167,24.7,63,4,1.17,TZ,1725390852
121,gunnedah,-30.9833,150.25,4.16,52,5,2.33,AU,1725390853
122,tobruk,32.0836,23.9764,26.84,64,0,3.83,LY,1725390854
123,brookings,44.3114,-96.7984,25.0,50,0,9.77,US,1725390855
124,udachny,66.4167,112.4,8.18,75,100,3.7,RU,1725390856
125,badger,64.8,-147.5333,10.14,75,75,0.0,US,1725390772
126,afaahiti,-17.75,-149.2833,22.49,73,89,10.33,PF,1725390858
127,mahalapye,-23.1041,26.8142,18.79,39,7,4.98,BW,1725390859
128,nkove,-7.95,30.85,25.69,49,71,2.17,TZ,1725390860
129,eseka,3.65,10.7667,22.36,99,100,0.76,CM,1725390861
130,broken hill,-31.95,141.4333,9.95,45,0,5.38,AU,1725390862
131,urengoy,65.9667,78.3667,8.71,92,100,3.22,RU,1725390864
132,makoua,0.0069,15.6333,25.68,73,64,0.62,CG,1725390865
133,naze,28.3667,129.4833,23.51,78,2,1.5,JP,1725390866
134,murzuq,25.9155,13.9184,33.39,32,72,2.89,LY,1725390867
135,hakui,36.8833,136.7833,22.92,89,100,2.68,JP,1725390869
136,labytnangi,66.6572,66.4183,4.44,88,69,1.72,RU,1725390870
137,nagqu,31.5,92.0,4.63,93,100,0.9,CN,1725390871
138,chonchi,-42.6128,-73.8092,7.53,94,100,3.87,CL,1725390872
139,bilibino,68.0546,166.4372,8.38,98,100,0.74,RU,1725390873
140,aitape,-3.1374,142.3475,24.24,89,99,1.85,PG,1725390875
141,neiafu,-18.65,-173.9833,19.38,88,20,0.0,TO,1725390876
142,monkey bay,-14.0728,34.9201,23.23,58,1,7.75,MW,1725390877
143,gazli,40.1333,63.45,23.07,16,0,4.91,UZ,1725390878
144,kansanshi,-12.0951,26.4273,15.98,32,0,2.18,ZM,1725390879
145,flin flon,54.7682,-101.865,25.91,47,100,6.69,CA,1725390880
146,socorro,31.6546,-106.3033,26.7,45,40,1.54,US,1725390881
147,ajaigarh,24.9,80.2667,27.65,81,21,2.08,IN,1725390882
148,san julian,21.0167,-102.1667,23.34,60,100,3.3,MX,1725390883
149,keflavik,64.0049,-22.5624,7.24,87,40,6.69,IS,1725390884
150,port-vila,-17.7338,168.3219,16.78,100,75,1.03,VU,1725390885
151,sumbawa besar,-8.5,117.4333,22.56,87,6,1.55,ID,1725390887
152,escanaba,45.7453,-87.0646,24.03,60,20,6.69,US,1725390888
153,avarua,-21.2078,-159.775,24.03,94,75,5.14,CK,1725390889
154,tamanrasset,22.785,5.5228,27.95,47,40,4.12,DZ,1725390876
155,astrakhan,46.3497,48.0408,18.93,55,0,7.0,RU,1725390891
156,polyarnyy,69.1989,33.4478,13.49,75,6,5.93,RU,1725390892
157,castillos,-34.1667,-53.8333,18.74,65,9,2.37,UY,1725390893
158,arno,60.1167,18.6333,13.55,83,100,3.75,SE,1725390894
159,sotkamo,64.1333,28.4167,15.62,95,24,1.53,FI,1725390895
160,tolanaro,-25.0319,46.9987,21.04,83,75,8.23,MG,1725390896
161,corsicana,32.0954,-96.4689,27.01,73,100,5.14,US,1725390897
162,sidrolandia,-20.9319,-54.9614,37.1,11,0,2.36,BR,1725390899
163,tsiombe,-25.3,45.4833,18.19,78,0,5.44,MG,1725390900
164,alotau,-10.3069,150.4462,23.21,78,100,1.55,PG,1725390902
165,san antonio de pale,-1.4014,5.6325,24.31,85,100,5.66,GQ,1725390904
166,pathein,16.7833,94.7333,25.2,93,87,2.48,MM,1725390905
167,suklayin,15.7574,121.5503,25.19,94,100,2.11,PH,1725390906
168,chui,-33.6971,-53.4616,19.15,65,0,3.05,UY,1725390907
169,whangarei,-35.7317,174.3239,8.24,98,100,1.43,NZ,1725390908
170,nuku'alofa,-21.1333,-175.2,18.19,88,20,1.54,TO,1725390909
171,beledweyne,4.7358,45.2036,26.56,52,6,11.37,SO,1725390911
172,moyale,3.5167,39.0584,24.37,48,99,2.24,KE,1725390912
173,ancud,-41.8697,-73.8203,9.12,86,100,8.96,CL,1725390913
174,hampton bays,40.869,-72.5176,22.7,42,0,3.09,US,1725390914
175,dunedin,-45.8742,170.5036,7.11,72,1,2.24,NZ,1725390799
176,baikonur,45.6167,63.3167,20.37,21,40,2.56,KZ,1725390916
177,manokwari,-0.8667,134.0833,25.85,77,99,1.64,ID,1725390917
178,northam,51.0333,-4.2167,15.9,88,55,3.74,GB,1725390918
179,male,4.1748,73.5089,27.97,89,75,7.2,MV,1725390919
180,st. john's,47.5649,-52.7093,16.82,96,100,7.2,CA,1725390918
181,port augusta,-32.5,137.7667,9.82,38,0,3.29,AU,1725390922
182,juegang,32.3174,121.1855,23.7,75,96,1.33,CN,1725390923
183,bcharre,34.2508,36.0106,15.92,93,0,0.45,LB,1725390924
184,rikaze,29.25,88.8833,14.28,52,85,2.01,CN,1725390925
185,codrington,-38.2667,141.9667,10.84,58,11,8.63,AU,1725390926
186,shimoda,34.6667,138.95,22.91,85,99,7.28,JP,1725390927
187,kruisfontein,-34.0033,24.7314,14.8,63,100,2.41,ZA,1725390928
188,calvinia,-31.4707,19.776,18.41,40,94,2.3,ZA,1725390929
189,al hamul,31.3115,31.1477,24.19,74,0,2.5,EG,1725390930
190,formosa do rio preto,-11.0483,-45.1931,34.75,15,0,3.07,BR,1725390931
191,enewetak,11.3474,162.3373,28.64,72,7,4.61,MH,1725390933
192,bafoulabe,13.8065,-10.8321,26.94,85,100,2.38,ML,1725390934
193,yeed,4.55,43.0333,29.94,42,98,9.36,SO,1725390935
194,khandyga,62.6667,135.6,7.73,96,100,1.27,RU,1725390936
195,tazovsky,67.4667,78.7,6.1,85,100,5.88,RU,1725390937
196,midvagur,62.0511,-7.1939,10.46,93,100,2.57,FO,1725390938
197,myitkyina,25.3833,97.4,23.91,100,100,1.06,MM,1725390939
198,mount gambier,-37.8333,140.7667,11.65,48,45,5.9,AU,1725390940
199,kargopol',61.5071,38.9456,10.82,70,100,1.95,RU,1725390941
200,bel ombre,-4.6167,55.4167,26.91,83,75,7.72,SC,1725390942
201,puerto baquerizo moreno,-0.9,-89.6,24.55,88,40,7.2,EC,1725390943
202,decatur,39.8403,-88.9548,23.03,40,0,3.6,US,1725390944
203,ulanhot,46.0833,122.0833,16.65,82,100,4.61,CN,1725390946
204,waddan,29.1614,16.139,35.79,24,75,4.67,LY,1725390947
205,huarmey,-10.0681,-78.1522,20.12,70,5,5.6,PE,1725390948
206,nuuk,64.1835,-51.7216,8.34,87,75,4.12,GL,1725390949
207,paita,-5.0892,-81.1144,20.69,70,10,7.03,PE,1725390950
208,visby,57.6409,18.296,16.12,88,44,3.6,SE,1725390951
209,katsuren-haebaru,26.3369,127.8719,28.43,90,40,2.06,JP,1725390952
210,nouadhibou,20.931,-17.0347,22.99,73,6,9.77,MR,1725390953
211,kingston,17.997,-76.7936,34.53,63,20,3.6,JM,1725390954
212,baardheere,2.3446,42.2764,27.08,55,99,10.06,SO,1725390956
213,puerto colombia,10.9878,-74.9547,34.05,75,79,4.98,CO,1725390957
214,vilyuysk,63.7553,121.6247,5.85,85,45,1.06,RU,1725390958
215,siuna,13.7332,-84.7773,31.58,63,82,0.88,NI,1725390959
216,morden,49.1919,-98.1014,27.24,54,0,3.6,CA,1725390960
217,quchan,37.106,58.5095,18.61,12,0,2.92,IR,1725390961
218,holualoa,19.6228,-155.9522,27.53,83,20,3.6,US,1725390963
219,taroa,8.7058,171.2275,28.79,77,48,7.49,MH,1725390964
220,zemio,5.0314,25.1361,22.11,94,84,0.59,CF,1725390966
221,jambi city,-1.6,103.6167,24.23,94,99,1.04,ID,1725390967
222,peace river,56.2501,-117.286,14.17,82,100,3.6,CA,1725390968
223,san pedro pochutla,15.7333,-96.4667,32.06,67,94,3.57,MX,1725390969
224,atafu village,-8.5421,-172.5159,28.22,74,6,8.59,TK,1725390970
225,haiku-pauwela,20.9219,-156.3051,28.45,71,20,9.77,US,1725390971
226,kolyshley,52.7005,44.5367,17.7,47,7,3.45,RU,1725390972
227,zouerate,22.7187,-12.4521,38.32,18,40,7.47,MR,1725390973
228,bikenibeu village,1.3673,173.1241,28.98,79,75,4.12,KI,1725390974
229,port douglas,-16.4833,145.4667,22.89,83,92,8.79,AU,1725390975
230,tocopilla,-22.092,-70.1979,18.57,72,8,5.39,CL,1725390713
231,golmarmara,38.7139,27.9142,24.64,57,20,2.57,TR,1725390977
232,donggongon,5.907,116.1015,25.96,89,20,2.68,MY,1725390979
233,balikpapan,-1.2675,116.8289,27.55,83,40,1.03,ID,1725390980
234,brisas de zicatela,15.8369,-97.0419,29.29,79,75,4.12,MX,1725390981
235,la'ie,21.6477,-157.9253,28.98,79,10,2.68,US,1725390982
236,olonkinbyen,70.9221,-8.7187,6.4,97,100,4.99,SJ,1725390983
237,vadso,70.0744,29.7487,17.09,67,0,6.17,NO,1725390984
238,talcahuano,-36.7167,-73.1167,11.82,71,40,4.63,CL,1725390985
239,namibe,-15.1961,12.1522,18.72,86,74,2.56,AO,1725390987
240,abu al matamir,30.9102,30.1744,24.65,71,0,2.63,EG,1725390988
241,porto novo,6.4965,2.6036,24.9,81,100,4.03,BJ,1725390989
242,cabo san lucas,22.8909,-109.9124,32.17,63,0,4.63,MX,1725390917
243,east london,-33.0153,27.9116,20.86,75,100,6.35,ZA,1725390991
244,sao felix do xingu,-6.6447,-51.995,38.62,16,14,1.77,BR,1725390992
245,santo antonio,-6.3106,-35.4789,27.78,49,88,8.23,BR,1725390993
246,jayapura,-2.5333,140.7,23.66,90,100,1.56,ID,1725390994
247,weno,7.4515,151.8468,25.97,94,100,0.0,FM,1725390995
248,cozumel,20.5083,-86.9458,32.04,66,75,4.12,MX,1725390996
249,cabinda,-5.55,12.2,22.59,87,0,3.34,AO,1725390997
250,ramadi,33.4226,43.3058,32.65,19,0,5.29,IQ,1725390999
251,machico,32.7,-16.7667,23.89,64,40,8.23,PT,1725391000
252,abepura,-2.6333,140.5833,23.45,100,20,0.51,ID,1725391001
253,galliano,29.4422,-90.2992,32.0,58,0,1.54,US,1725391002
254,kaa-khem,51.6833,94.7333,11.33,57,100,1.28,RU,1725391003
255,sierra grande,-41.606,-65.3557,16.07,25,100,8.43,AR,1725391004
256,usinsk,65.9939,57.5281,5.92,73,12,3.46,RU,1725390943
257,the pas,53.8251,-101.2541,30.01,42,0,4.12,CA,1725391006
258,letterkenny,54.95,-7.7333,11.41,66,100,3.07,IE,1725391007
259,wuxue,29.8506,115.5525,25.61,87,3,1.75,CN,1725391008
260,twon-brass,4.3151,6.2418,25.92,84,92,6.15,NG,1725391009
261,hasaki,35.7333,140.8333,24.29,84,100,6.58,JP,1725391010
262,egilsstadir,65.2653,-14.3948,9.95,50,20,6.17,IS,1725391012
263,ayaviri,-14.8864,-70.5889,18.86,16,7,1.12,PE,1725391013
264,zarichne,51.8126,26.129,21.47,43,35,2.15,UA,1725391014
265,tralee,52.2704,-9.7026,14.14,77,75,3.6,IE,1725391015
266,essaouira,31.5125,-9.77,25.72,57,0,5.66,MA,1725391016
267,bathsheba,13.2167,-59.5167,31.34,70,20,8.23,BB,1725391017
268,santander jimenez,24.2167,-98.4667,34.25,49,51,0.98,MX,1725391018
269,xilin hot,43.9667,116.0333,18.5,98,100,2.11,CN,1725391019
270,geraldton,-28.7667,114.6,12.23,94,75,3.09,AU,1725391020
271,timimoun,29.2639,0.231,39.21,12,0,4.12,DZ,1725391021
272,howrah,22.5892,88.3103,29.0,89,40,0.0,IN,1725391022
273,ierapetra,35.01,25.7353,27.3,62,4,3.58,GR,1725391024
274,nakhon phanom,17.3333,104.4167,24.8,91,85,1.99,TH,1725391025
275,selfoss,63.9331,-20.9971,10.02,80,0,3.32,IS,1725391026
276,olyokminsk,60.3736,120.4264,9.06,95,100,4.35,RU,1725391028
277,kodiak,57.79,-152.4072,12.73,88,100,6.69,US,1725391029
278,holly springs,35.6513,-78.8336,26.06,52,6,2.24,US,1725391030
279,port saint john's,-31.6229,29.5448,23.24,59,27,4.81,ZA,1725391031
280,vega de alatorre,20.0333,-96.6333,30.61,69,98,3.51,MX,1725391032
281,begamganj,23.6,78.3333,24.43,92,100,3.22,IN,1725391034
282,kuanda,56.3161,116.0806,4.28,90,28,1.95,RU,1725391035
283,dalyellup,-33.3986,115.6168,15.48,80,22,10.3,AU,1725391036
284,jalasjarvi,62.5,22.75,12.07,80,100,0.98,FI,1725391037
285,la passe,45.5549,-0.8967,18.5,79,84,5.27,FR,1725391038
286,falkenberg,56.9055,12.4912,19.58,76,9,6.52,SE,1725391039
287,chul'man,56.8479,124.9104,8.12,96,100,6.17,RU,1725391040
288,yaren,-0.5472,166.916,28.14,72,100,3.28,NR,1725391041
289,petropavlovsk-kamchatsky,53.0452,158.6483,8.33,76,40,2.0,RU,1725391042
290,ola,59.5833,151.2833,8.36,81,34,1.72,RU,1725391043
291,bat khela,34.6167,71.9714,24.3,73,0,2.23,PK,1725391044
292,benjamin constant,-4.3831,-70.0311,31.07,70,20,2.06,BR,1725391046
293,ad dawadimi,24.5077,44.3924,29.64,23,7,4.34,SA,1725391047
294,morehead city,34.7229,-76.726,27.78,65,75,10.8,US,1725391048
295,sucre,-19.0333,-65.2627,25.66,6,0,3.49,BO,1725391051
296,mournies,35.4764,24.0092,38.04,88,20,2.57,GR,1725391052
297,sabang,5.8933,95.3214,27.1,79,100,8.76,ID,1725391053
298,odda,60.0691,6.5457,12.99,96,100,2.27,NO,1725391055
299,west plains,36.7281,-91.8524,26.23,52,0,3.13,US,1725391057
300,sylvania,41.7189,-83.713,24.34,45,0,2.57,US,1725391058
301,kailua-kona,19.6406,-155.9956,29.6,81,20,3.6,US,1725391059
302,cockburn town,21.4612,-71.1419,28.71,86,18,9.4,TC,1725391060
303,realico,-35.0366,-64.2447,18.86,21,2,4.89,AR,1725391062
304,wiesbaden,50.0833,8.25,22.73,89,41,1.79,DE,1725391064
305,cloquet,46.7216,-92.4594,24.25,53,0,5.14,US,1725391065
306,alofi,-19.0595,-169.9187,22.94,73,100,4.12,NU,1725391067
307,al qusayr,34.5091,36.5798,23.34,68,0,3.64,SY,1725391068
308,ulladulla,-35.35,150.4667,8.54,64,100,2.51,AU,1725391069
309,bamboo flat,11.7,92.7167,25.05,94,100,3.09,IN,1725391070
310,aykol,38.1751,77.2132,20.75,28,100,3.06,CN,1725391071
311,arkhangel'sk,64.5401,40.5433,15.06,82,75,1.0,RU,1725390936
312,mae sot,16.7167,98.5667,26.9,99,97,0.84,TH,1725391073
313,bestobe,52.4994,73.0975,12.81,90,100,5.66,KZ,1725391075
314,marsh harbour,26.5412,-77.0636,29.59,75,62,5.92,BS,1725391076
315,kolonia,50.9333,6.95,23.86,80,0,2.57,DE,1725391077
316,mejit,10.2753,170.8646,28.48,78,23,7.93,MH,1725391078
317,nar'yan-mar,67.6713,53.087,7.71,95,1,3.48,RU,1725391080
318,apiai,-24.5094,-48.8425,30.55,20,0,0.32,BR,1725391081
319,carnarvon,-24.8667,113.6333,19.12,76,63,6.09,AU,1725391082
320,itoman,26.1247,127.6694,28.43,89,20,1.03,JP,1725391083
321,coahuayana de hidalgo,18.7,-103.6583,32.03,60,60,2.99,MX,1725391084
322,moeiwadi,16.3894,104.1572,24.39,94,93,1.99,TH,1725391085
323,angers,47.4667,-0.55,20.01,77,100,3.52,FR,1725391087
324,igarka,67.4667,86.5833,7.9,89,90,3.47,RU,1725391088
325,kota tinggi,1.7381,103.8999,25.13,95,55,0.58,MY,1725391089
326,georgetown,5.4112,100.3354,27.96,88,20,1.03,MY,1725391090
327,jose pedro varela,-33.45,-54.5333,19.93,63,0,6.02,UY,1725391091
328,bairnsdale,-37.8333,147.6167,3.92,96,100,1.97,AU,1725391092
329,"laikit, laikit ii (dimembe)",1.4792,124.9735,21.47,94,40,0.51,ID,1725391093
330,popondetta,-8.7537,148.2534,22.92,88,88,0.95,PG,1725391094
331,la malbaie,47.6575,-70.1559,19.03,45,42,5.05,CA,1725391095
332,paracuru,-3.41,-39.0306,26.98,71,70,7.73,BR,1725391096
333,berberati,4.2612,15.7922,21.16,91,97,0.84,CF,1725391097
334,baise city,23.8997,106.6133,27.97,99,12,0.76,CN,1725391099
335,yanbu,24.0891,38.0637,36.02,32,0,2.57,SA,1725391100
336,christchurch,-43.5333,172.6333,7.17,90,75,3.09,NZ,1725391101
337,surubim,-7.8331,-35.7547,24.81,56,100,6.58,BR,1725391102
338,rio grande,-32.035,-52.0986,18.2,73,2,3.9,BR,1725391103
339,puerto leguizamo,-0.1934,-74.7819,35.46,37,62,0.69,CO,1725391104
340,margate,51.3813,1.3862,19.37,76,100,4.31,GB,1725391105
341,port alfred,-33.5906,26.891,17.32,85,100,0.45,ZA,1725391106
342,aridaia,40.9731,22.0564,25.63,47,100,2.08,GR,1725391107
343,morondava,-20.2833,44.2833,22.96,70,0,3.53,MG,1725391108
344,zhumysker,49.3333,49.4,21.05,21,100,3.38,KZ,1725391109
345,merizo village,13.2658,144.6691,27.31,94,25,3.45,GU,1725391111
346,vryheid,-27.7695,30.7917,15.3,65,0,2.9,ZA,1725391112
347,minas de marcona,-15.2119,-75.1103,16.31,54,0,8.59,PE,1725391113
348,mandalgovi,45.7625,106.2708,10.46,61,13,7.89,MN,1725391114
349,kushiro,42.975,144.3747,17.53,94,100,1.54,JP,1725391115
350,harstad,68.799,16.5293,14.53,76,100,11.62,NO,1725391116
351,lethem,3.3803,-59.7968,32.76,54,99,1.32,GY,1725391117
352,koryazhma,61.3143,47.1691,7.96,82,7,1.69,RU,1725391119
353,lebedyn,50.5852,34.4849,20.44,32,100,3.66,UA,1725391121
354,nowshahr,36.649,51.496,24.97,83,0,0.0,IR,1725391122
355,isangel,-19.55,169.2667,20.48,80,15,2.73,VU,1725391123
356,bechar,31.6167,-2.2167,36.18,16,40,3.09,DZ,1725391124
357,macae,-22.3708,-41.7869,23.86,69,75,2.57,BR,1725391125
358,mount pearl,47.5166,-52.7813,16.19,94,100,7.2,CA,1725391099
359,coronel suarez,-37.4547,-61.9334,15.04,31,1,4.97,AR,1725391127
360,alice springs,-23.7,133.8833,10.75,43,5,0.0,AU,1725391128
361,boyolangu,-8.1181,111.8935,22.05,96,41,1.29,ID,1725391129
362,iskateley,67.6803,53.1512,7.67,96,0,3.45,RU,1725391130
363,kidal,18.4411,1.4078,30.79,50,98,2.02,ML,1725391131
364,luena,-11.7833,19.9167,17.39,26,0,2.42,AO,1725391133
365,pleven,43.4167,24.6167,25.97,44,0,2.06,BG,1725391134
366,champerico,14.3,-91.9167,29.44,73,17,3.86,GT,1725391135
367,tidjikja,18.5564,-11.4271,35.67,28,0,4.96,MR,1725391136
368,roanoke rapids,36.4615,-77.6542,25.11,68,75,5.66,US,1725391137
369,tobelo,1.7284,128.0095,25.95,84,92,3.06,ID,1725391138
370,igrim,63.1906,64.4162,6.64,89,50,3.19,RU,1725391139
371,kloulklubed,7.0419,134.2556,28.84,71,92,1.79,PW,1725391140
372,santana,-0.0583,-51.1817,34.1,59,20,3.09,BR,1725391142
373,saint-leu,-21.15,55.2833,21.09,97,13,2.07,RE,1725391144
374,swan hill,-35.3378,143.5544,6.12,81,6,3.42,AU,1725391145
375,tazacorte,28.629,-17.9293,22.86,80,75,7.2,ES,1725391146
376,guerrero negro,27.9769,-114.0611,24.79,61,0,7.36,MX,1725391147
377,pailin,12.849,102.6093,24.46,94,100,2.84,KH,1725391148
378,oppdal,62.5943,9.6912,11.91,96,100,5.06,NO,1725391149
379,aykhal,66.0,111.5,6.99,79,100,3.24,RU,1725391150
380,palmer,42.1584,-72.3287,23.62,36,20,0.0,US,1725391151
381,saint-francois,46.4154,3.9054,19.69,88,100,1.03,FR,1725391152
382,puerto deseado,-47.7503,-65.8938,12.28,37,0,7.27,AR,1725391153
383,adrar,20.5022,-10.0711,37.49,26,100,4.53,MR,1725391154
384,langepas,61.2544,75.2124,7.07,88,100,4.69,RU,1725391156
385,rongelap,11.1635,166.8941,28.5,76,15,4.69,MH,1725391157
386,seydi,39.4816,62.9137,22.07,16,0,4.64,TM,1725391158
387,ciudad lazaro cardenas,17.9583,-102.2,30.92,63,16,4.36,MX,1725391159
388,crane,31.3974,-102.3501,20.68,82,100,5.92,US,1725391160
389,lycksele,64.5954,18.6735,13.93,82,100,6.17,SE,1725391161
390,la porte,29.6658,-95.0194,29.46,83,40,3.09,US,1725391165
391,sungai raya,0.7,108.9,25.51,88,100,2.89,ID,1725391166
392,turrialba,9.9047,-83.6835,27.48,77,76,2.51,CR,1725390977
393,semenov,56.7875,44.493,15.1,79,0,2.9,RU,1725391168
394,flying fish cove,-10.4217,105.6791,24.82,88,100,5.14,CX,1725391169
395,laminusa,5.5549,120.9136,28.44,76,76,2.01,PH,1725391170
396,ambon,-3.6954,128.1814,26.04,95,40,0.51,ID,1725391171
397,opuwo,-18.0607,13.84,22.18,18,55,3.77,NA,1725391172
398,rockport,28.0206,-97.0544,29.45,86,0,4.12,US,1725391173
399,pundong,-7.9522,110.3486,23.44,89,97,0.76,ID,1725391174
400,errachidia,31.9275,-4.4285,31.03,23,40,9.26,MA,1725391175
401,kachug,53.9606,105.8817,5.02,93,82,1.41,RU,1725391177
402,juchipila,21.4167,-103.1167,28.11,54,87,1.75,MX,1725391179
403,san carlos del zulia,9.0,-71.9135,36.27,41,98,3.5,VE,1725391180
404,kolonia town,6.964,158.206,25.0,94,40,2.06,FM,1725391181
405,botosani,47.75,26.6667,25.64,29,72,4.07,RO,1725391182
406,kirakira,-10.4544,161.9205,25.52,78,96,6.28,SB,1725391183
407,dorado,18.4588,-66.2677,33.52,73,91,1.34,PR,1725391184
408,port lincoln,-34.7333,135.8667,15.2,37,7,8.29,AU,1725391185
409,yeppoon,-23.1333,150.7333,20.1,66,14,11.57,AU,1725391188
410,daru,-9.0763,143.2092,25.09,78,100,7.35,PG,1725391190
411,nieuw amsterdam,5.8833,-55.0833,34.01,55,20,2.57,SR,1725391191
412,saipan,15.1355,145.701,28.39,78,0,1.54,MP,1725391192
413,el-tor,28.2364,33.6254,31.1,41,0,6.04,EG,1725391193
414,pico truncado,-46.7949,-67.9573,11.96,30,99,12.04,AR,1725391194
415,hoeselt,50.8478,5.4858,21.49,87,100,2.54,BE,1725391195
416,kone,-21.0595,164.8658,17.82,90,53,1.44,NC,1725391196
417,homer,59.6425,-151.5483,15.43,81,40,0.0,US,1725391197
418,east ballina,-28.8667,153.5833,10.83,84,65,4.37,AU,1725391199
419,belyy yar,53.6039,91.3903,10.94,76,0,4.0,RU,1725391200
420,la asuncion,11.0333,-63.8628,31.85,66,42,7.2,VE,1725391201
421,farim,12.4839,-15.2217,25.11,94,97,2.76,GW,1725391202
422,alaghsas,17.0187,8.0168,27.52,70,100,4.96,NE,1725391203
423,lunglei,22.8833,92.7333,22.16,100,100,0.61,IN,1725391204
424,quartu sant'elena,39.2419,9.1839,28.33,75,20,4.63,IT,1725391205
425,gaiman,-43.2897,-65.4929,17.11,24,1,9.23,AR,1725391206
426,novaya igirma,57.1334,103.9112,7.15,95,100,1.95,RU,1725391207
427,khash,28.2211,61.2158,23.17,13,0,2.95,IR,1725391208
428,natal,-5.795,-35.2094,27.36,57,20,8.23,BR,1725390993
429,rawlins,41.7911,-107.2387,27.97,18,0,4.12,US,1725391211
430,chuguyevka,44.1653,133.8633,11.45,86,0,1.46,RU,1725391212
431,mahibadhoo,3.7833,72.9667,28.48,71,94,4.47,MV,1725391213
432,fort st. john,56.2499,-120.8529,14.94,77,75,4.12,CA,1725391214
433,kenai,60.5544,-151.2583,11.68,99,100,2.57,US,1725391215
434,lihue,21.9789,-159.3672,27.77,77,75,6.69,US,1725391216
435,aioun,16.6614,-9.6149,34.69,40,100,7.11,MR,1725391217
436,guajara mirim,-10.7828,-65.3394,40.72,15,0,1.72,BR,1725391218
437,oebisfelde,52.4333,10.9833,21.61,69,19,0.1,DE,1725391219
438,kardla,58.9978,22.7492,16.45,86,100,3.17,EE,1725391220
439,sosnogorsk,63.6023,53.8817,6.11,69,3,2.05,RU,1725391221
440,riviere-du-loup,47.8304,-69.5342,17.15,55,90,2.57,CA,1725391222
441,atoyac de alvarez,17.2,-100.4333,32.4,59,96,3.01,MX,1725391224
442,bu'aale,1.0833,42.5833,24.25,72,13,5.23,SO,1725391225
443,santiago de cuba,20.0247,-75.8219,32.85,59,41,3.18,CU,1725391226
444,laguna,38.421,-121.4238,31.77,28,0,4.63,US,1725391227
445,frauenfeld,47.5582,8.8985,23.18,85,19,1.2,CH,1725391228
446,ontario,34.0633,-117.6509,35.68,36,20,2.68,US,1725390985
447,nuriootpa,-34.4833,139.0,9.12,39,0,3.57,AU,1725391231
448,ilhabela,-23.7781,-45.3581,22.8,80,9,2.83,BR,1725391232
449,klyuchi,52.2667,79.1667,14.04,93,100,6.93,RU,1725391234
450,hobyo,5.3505,48.5268,24.85,79,19,13.6,SO,1725391235
451,george town,5.4112,100.3354,27.96,88,20,1.03,MY,1725391236
452,bodo,67.28,14.405,16.02,63,75,5.14,NO,1725391237
453,awjilah,29.1081,21.2869,32.04,30,0,4.02,LY,1725391238
454,dudinka,69.4058,86.1778,5.17,84,100,5.4,RU,1725391239
455,barra do garcas,-15.89,-52.2567,37.32,19,0,3.6,BR,1725391240
456,alto barinas,8.5931,-70.2261,32.97,50,59,3.29,VE,1725391241
457,zavodoukovsk,56.5042,66.5515,8.6,90,100,4.27,RU,1725391242
458,acajutla,13.5928,-89.8275,29.19,75,66,3.43,SV,1725391243
459,afua,-0.1567,-50.3867,30.68,59,100,1.3,BR,1725391244
460,tres arroyos,-38.3739,-60.2798,15.73,39,100,5.28,AR,1725391246
461,belmonte,-15.8631,-38.8828,25.8,60,0,4.33,BR,1725391247
462,liberia,6.5,-9.5,23.16,98,100,1.92,LR,1725391248
463,dikwa,12.024,13.9165,22.15,97,100,3.42,NG,1725391249
464,general conesa,-40.1,-64.4333,17.7,23,2,7.55,AR,1725391250
465,nemuro,43.3236,145.575,17.1,91,2,2.86,JP,1725391251
466,al ghayzah,16.2079,52.176,25.48,86,100,5.09,YE,1725391252
467,comodoro rivadavia,-45.8667,-67.5,13.92,30,0,12.35,AR,1725391181
468,prachuap khiri khan,12.2167,99.75,24.98,83,100,4.28,TH,1725391254
469,save,8.0425,2.486,26.43,73,100,0.48,BJ,1725391255
470,coalinga,36.1397,-120.3602,34.36,19,0,2.24,US,1725391256
471,miramichi,47.0043,-65.4654,20.0,23,12,6.03,CA,1725391257
472,kourou,5.1552,-52.6478,29.51,64,100,3.14,GF,1725391259
473,chivhu,-19.0211,30.8922,11.32,52,60,3.4,ZW,1725391260
474,nova sintra,14.8667,-24.7167,26.08,82,100,7.21,CV,1725391261
475,san fernando de apure,7.8878,-67.4724,30.16,74,24,0.91,VE,1725391263
476,den burg,53.0542,4.7972,18.99,72,100,4.12,NL,1725391264
477,sabzevar,36.2126,57.6819,23.23,7,0,5.14,IR,1725391265
478,acapulco de juarez,16.8634,-99.8901,31.9,62,40,2.57,MX,1725391016
479,ambovombe,-25.1667,46.0833,18.89,76,33,7.19,MG,1725391267
480,pisco,-13.7,-76.2167,19.03,72,0,4.12,PE,1725391269
481,lorengau,-2.0226,147.2712,25.75,85,100,2.14,PG,1725391270
482,yelizovo,53.1873,158.3805,9.08,76,40,2.0,RU,1725391271
483,macas,-2.3167,-78.1167,27.86,44,40,2.57,EC,1725391090
484,malango,-2.9627,119.9001,19.42,89,88,0.72,ID,1725391273
485,port shepstone,-30.7414,30.455,20.2,84,4,6.88,ZA,1725391274
486,nova olinda do norte,-3.8881,-59.0942,39.67,22,95,2.18,BR,1725391275
487,suva,-18.1416,178.4415,18.71,94,40,1.03,FJ,1725391276
488,kill devil hills,36.0307,-75.676,25.55,64,40,8.75,US,1725391277
489,shouguang,36.88,118.7375,20.3,82,54,2.7,CN,1725391278
490,rizhao,35.4275,119.4553,20.38,79,8,1.17,CN,1725391279
491,yingkou,40.6648,122.2283,20.88,86,29,4.0,CN,1725391281
492,weinan,34.5036,109.5089,24.18,81,93,1.76,CN,1725391282
493,dom pedro,-4.4833,-44.45,37.25,24,5,1.36,BR,1725391283
494,luderitz,-26.6481,15.1594,16.02,74,100,5.26,NA,1725391284
495,craig,40.5153,-107.5464,26.79,16,71,5.27,US,1725391286
496,kannus,63.9,23.9,10.79,94,90,0.39,FI,1725391287
497,laojunmiao,39.8333,97.7333,9.51,92,100,2.4,CN,1725391288
498,olinda,-8.0089,-34.8553,27.85,57,40,5.14,BR,1725391289
499,fada,7.25,4.0667,23.43,85,98,1.92,NG,1725391291
500,chilca,-12.5211,-76.7372,16.5,80,34,4.01,PE,1725391292
501,kingsbridge,50.2845,-3.7764,17.01,82,6,3.94,GB,1725391293
502,mil'kovo,55.6078,37.7956,22.02,46,0,2.88,RU,1725391294
503,gonabad,34.3529,58.6837,22.82,7,0,3.04,IR,1725391295
504,mizan teferi,6.9833,35.5833,16.46,93,3,1.29,ET,1725391296
505,arraial do cabo,-22.9661,-42.0278,23.98,73,0,3.6,BR,1725391297
506,al wafrah,28.6392,47.9306,33.88,19,6,6.53,KW,1725391298
507,san clemente del tuyu,-36.3569,-56.7235,12.63,64,36,4.48,AR,1725391299
508,sechura,-5.5569,-80.8222,23.93,56,17,6.02,PE,1725391300
509,severo-yeniseyskiy,60.3725,93.0408,4.28,92,100,1.23,RU,1725391301
510,kuala belait,4.5833,114.1833,26.41,85,100,0.16,BN,1725391305
511,taitung city,22.7583,121.1444,27.3,84,97,2.31,TW,1725391306
512,yauya,-8.9833,-77.3,19.22,26,9,2.04,PE,1725391307
513,jiazi,22.8779,116.067,27.05,80,100,7.52,CN,1725391308
514,piacabucu,-10.4056,-36.4344,25.54,63,100,3.43,BR,1725391309
515,ulan bator,47.9077,106.8832,7.07,87,20,3.0,MN,1725391310
516,shiguai,40.7058,110.2856,19.9,99,100,1.29,CN,1725391311
517,pizarro,4.9533,-77.366,27.17,83,62,3.89,CO,1725391312
518,tortoli,39.9256,9.6572,25.9,92,0,2.57,IT,1725391314
519,khagrachhari,23.1,91.9667,23.98,98,100,0.49,BD,1725391315
520,tam ky,15.5667,108.4833,24.66,92,100,2.22,VN,1725391316
521,murashi,59.3999,48.9615,6.75,88,0,2.33,RU,1725391317
522,chadron,42.8294,-102.9999,36.82,19,0,4.12,US,1725391318
523,nyandoma,61.669,40.1991,10.21,73,10,1.9,RU,1725391319
524,colonia,50.9333,6.95,23.86,80,0,2.57,DE,1725391320
525,celestun,20.8667,-90.4,29.97,69,100,4.3,MX,1725391321
526,sur,22.5667,59.5289,26.81,82,6,3.07,OM,1725391301
527,muzaffarpur,26.1167,85.4,30.73,66,100,2.02,IN,1725391323
528,dawson creek,55.7666,-120.2362,16.8,63,0,4.63,CA,1725391324
529,swanley,51.3972,0.1732,18.42,69,20,2.57,GB,1725391326
530,bubaque,11.2833,-15.8333,26.8,83,31,7.61,GW,1725391327
531,pathalgaon,22.5667,83.4667,23.14,94,100,1.55,IN,1725391328
532,fort bragg,35.139,-79.006,27.04,49,0,6.17,US,1725391329
533,vila velha,-20.3297,-40.2925,23.97,89,75,4.63,BR,1725391330
534,olonets,60.9847,32.9698,17.87,86,0,3.27,RU,1725391331
535,vryburg,-26.9566,24.7284,17.35,23,41,3.9,ZA,1725391332
536,peymeinade,43.6333,6.8833,23.97,75,0,1.03,FR,1725391333
537,macapa,0.0389,-51.0664,33.99,59,20,3.09,BR,1725391334
538,kanigiri,15.4,79.5167,27.66,71,100,5.04,IN,1725391335
539,fukura,34.25,134.7167,24.0,83,20,3.6,JP,1725391336
540,vung tau,10.346,107.0843,26.31,85,100,5.68,VN,1725391338
541,wattegama,6.7989,81.4808,25.66,78,100,2.87,LK,1725391339
542,hugo,45.16,-92.9933,24.96,53,0,8.23,US,1725391226
543,tshikapa,-6.4167,20.8,29.93,26,77,0.83,CD,1725391341
544,kingscliff,-28.2667,153.5667,14.41,67,75,4.12,AU,1725391342
545,rehoboth,-23.3167,17.0833,18.0,13,25,2.25,NA,1725391343
546,mary,37.0,62.5,21.46,12,0,3.44,TM,1725391344
547,nilanga,18.1,76.7667,22.37,93,96,5.7,IN,1725391345
548,despenaderos,-31.8163,-64.2899,20.88,12,0,3.54,AR,1725391346
549,ust'-uda,54.1742,103.0304,4.95,89,96,0.36,RU,1725391347
550,buta,2.7858,24.73,20.55,99,100,1.97,CD,1725391348
551,tynda,55.1667,124.7167,11.11,95,100,4.13,RU,1725391350
552,gebeit,21.0667,36.3167,32.1,26,16,1.87,SD,1725391351
553,bosobolo,4.1833,19.9,22.5,94,100,0.9,CD,1725391353
554,markala,13.7021,-6.0659,28.84,68,100,2.22,ML,1725391354
555,chicoana,-25.1009,-65.5331,24.03,26,0,5.96,AR,1725391355
556,cabedelo,-6.9811,-34.8339,27.37,69,44,7.12,BR,1725391356
557,erenhot,43.6475,111.9767,20.94,83,100,4.51,CN,1725391357
558,nova vicosa,-17.8919,-39.3719,26.05,63,0,6.56,BR,1725391358
559,bensonville,6.4461,-10.6125,23.98,93,55,2.82,LR,1725391360
560,coronel dorrego,-38.7187,-61.2873,15.45,36,6,5.75,AR,1725391361
561,baharly,38.4362,57.4316,22.71,9,0,2.69,TM,1725391363
562,lerwick,60.1545,-1.1494,12.44,91,99,5.15,GB,1725391364
563,kamloops,50.6665,-120.3192,25.55,47,75,5.14,CA,1725391365
564,takaungu,-3.6837,39.8566,24.32,83,6,6.88,KE,1725391366
565,xinqing,48.2333,129.5,13.33,98,100,1.67,CN,1725391367
566,gargzdai,55.7128,21.4033,19.54,67,100,3.8,LT,1725391368
567,lastoursville,-0.8143,12.7287,26.23,74,97,0.81,GA,1725391370
568,thunder bay,48.4001,-89.3168,22.95,56,20,7.2,CA,1725391371
569,kutahya,39.4242,29.9833,20.14,66,80,1.46,TR,1725391372
570,pandan,14.0453,124.1694,27.37,82,100,6.27,PH,1725391373
571,uray,60.1247,64.7758,9.31,80,100,5.68,RU,1725391374
572,port sudan,19.6175,37.2164,32.59,58,94,4.11,SD,1725391375
573,independence,39.0911,-94.4155,28.33,40,0,3.6,US,1725391376
574,dhuusamarreeb,5.535,46.3861,27.06,48,86,11.63,SO,1725391377
575,el kef,36.1742,8.7049,26.8,45,100,2.71,TN,1725391378
576,ilebo,-4.3167,20.5833,25.61,64,13,0.76,CD,1725391379
577,saint-joseph,-21.3667,55.6167,20.21,83,34,3.9,RE,1725391382
578,i-n-salah,27.1935,2.4607,39.21,13,12,5.2,DZ,1725391383
579,peniche,39.3558,-9.3811,18.45,85,0,11.39,PT,1725391384
580,serpa,37.9458,-7.5975,25.54,37,0,6.16,PT,1725391385
581,mayang imphal,24.6167,93.8833,21.17,97,100,0.61,IN,1725391386
582,tarko-sale,64.9225,77.785,7.73,96,100,2.17,RU,1725391387
